pref_code,pref_name,station_code,station_name,station_yomi,station_note,station_lat,station_lon
10,"群馬県",21839,"相老","あいおい","",36.410476,139.304434
10,"群馬県",21840,"赤城","あかぎ","",36.425749,139.276269
10,"群馬県",21841,"赤坂","あかさか","群馬県",36.397139,139.117284
10,"群馬県",21842,"阿左美","あざみ","",36.385560,139.306657
10,"群馬県",21843,"新屋","あらや","群馬県",36.413694,139.196665
10,"群馬県",21844,"安中","あんなか","",36.331781,138.913637
10,"群馬県",29186,"安中榛名","あんなかはるな","",36.362582,138.849613
10,"群馬県",21845,"伊勢崎","いせさき","",36.326841,139.194169
10,"群馬県",21846,"磯部","いそべ","群馬県",36.298505,138.849504
10,"群馬県",29179,"板倉東洋大前","いたくらとうようだいまえ","",36.222056,139.648581
10,"群馬県",21847,"市城","いちしろ","",36.570643,138.882295
10,"群馬県",21848,"井野","いの","群馬県",36.357308,139.022932
10,"群馬県",21849,"岩島","いわしま","",36.563197,138.759889
10,"群馬県",21850,"岩宿","いわじゅく","",36.395808,139.296768
10,"群馬県",21851,"岩本","いわもと","",36.603255,139.047168
10,"群馬県",21852,"祖母島","うばしま","",36.540621,138.957068
10,"群馬県",21853,"運動公園","うんどうこうえん","群馬県",36.420501,139.300878
10,"群馬県",21854,"江木","えぎ","",36.407248,139.133532
10,"群馬県",21855,"大胡","おおご","",36.412748,139.156334
10,"群馬県",21856,"太田","おおた","群馬県",36.294070,139.378739
10,"群馬県",21857,"大前","おおまえ","",36.513754,138.529021
10,"群馬県",21858,"大間々","おおまま","",36.434609,139.277463
10,"群馬県",21859,"小野上","おのがみ","",36.552424,138.922181
10,"群馬県",21860,"小野上温泉","おのがみおんせん","",36.556840,138.904349
10,"群馬県",21861,"粕川","かすかわ","",36.416777,139.210886
10,"群馬県",21862,"片貝","かたかい","",36.393889,139.095619
10,"群馬県",21863,"金島","かなしま","群馬県",36.529344,138.976456
10,"群馬県",21864,"神農原","かのはら","",36.242622,138.843729
10,"群馬県",21865,"上泉","かみいずみ","",36.394222,139.106562
10,"群馬県",21866,"上神梅","かみかんばい","",36.469966,139.257685
10,"群馬県",21867,"上牧","かみもく","群馬県",36.735462,138.984168
10,"群馬県",21868,"川俣","かわまた","",36.208861,139.526508
10,"群馬県",21869,"川原湯温泉","かわらゆおんせん","",36.545116,138.697200
10,"群馬県",21870,"木崎","きざき","",36.271128,139.312467
10,"群馬県",21871,"北高崎","きたたかさき","",36.338699,139.001268
10,"群馬県",21872,"北原","きたはら","",36.413666,139.184749
10,"群馬県",21873,"北藤岡","きたふじおか","",36.282400,139.080903
10,"群馬県",21874,"桐生","きりゅう","",36.411224,139.332765
10,"群馬県",29577,"桐生球場前","きりゅうきゅうじょうまえ","",36.419251,139.298045
10,"群馬県",21875,"国定","くにさだ","",36.358783,139.241969
10,"群馬県",21876,"倉賀野","くらがの","",36.300259,139.049183
10,"群馬県",21877,"群馬大津","ぐんまおおつ","",36.553835,138.628038
10,"群馬県",21878,"群馬総社","ぐんまそうじゃ","",36.415830,139.032373
10,"群馬県",21879,"群馬原町","ぐんまはらまち","",36.571698,138.824410
10,"群馬県",21880,"群馬藤岡","ぐんまふじおか","",36.250209,139.083292
10,"群馬県",21881,"群馬八幡","ぐんまやわた","",36.337865,138.957438
10,"群馬県",21882,"小泉町","こいずみまち","群馬県",36.261492,139.419959
10,"群馬県",21883,"小中","こなか","",36.535739,139.337731
10,"群馬県",21884,"駒形","こまがた","",36.354033,139.139811
10,"群馬県",21885,"剛志","ごうし","",36.295513,139.224085
10,"群馬県",21886,"神戸","ごうど","群馬県",36.537434,139.356702
10,"群馬県",21887,"郷原","ごうばら","",36.548700,138.801108
10,"群馬県",21888,"後閑","ごかん","",36.679300,139.000113
10,"群馬県",21889,"境町","さかいまち","",36.277043,139.256583
10,"群馬県",29744,"佐野のわたし","さののわたし","",36.302535,139.018295
10,"群馬県",21890,"三枚橋","さんまいばし","",36.313540,139.354851
10,"群馬県",21891,"敷島","しきしま","",36.538594,139.034006
10,"群馬県",21892,"篠塚","しのづか","",36.256659,139.446624
10,"群馬県",21893,"渋川","しぶかわ","",36.490709,139.008399
10,"群馬県",21894,"下新田","しもしんでん","",36.407641,139.315239
10,"群馬県",21895,"下仁田","しもにた","",36.210514,138.786597
10,"群馬県",21896,"新伊勢崎","しんいせさき","",36.318231,139.201863
10,"群馬県",21897,"新桐生","しんきりゅう","",36.395114,139.320045
10,"群馬県",21900,"心臓血管センター","しんぞうけっかんせんたー","",36.405083,139.128755
10,"群馬県",21898,"新前橋","しんまえばし","",36.378973,139.047096
10,"群馬県",21899,"新町","しんまち","群馬県",36.273179,139.105485
10,"群馬県",21901,"上州一ノ宮","じょうしゅういちのみや","",36.252928,138.863839
10,"群馬県",21902,"上州富岡","じょうしゅうとみおか","",36.260454,138.891919
10,"群馬県",21903,"上州七日市","じょうしゅうなのかいち","",36.258705,138.874643
10,"群馬県",21904,"上州新屋","じょうしゅうにいや","",36.255956,138.951859
10,"群馬県",21905,"上州福島","じょうしゅうふくしま","",36.256372,138.929416
10,"群馬県",21906,"城東","じょうとう","",36.391195,139.081176
10,"群馬県",21907,"上毛高原","じょうもうこうげん","",36.693048,138.977476
10,"群馬県",21908,"治良門橋","じろえんばし","",36.333066,139.341073
10,"群馬県",21909,"世良田","せらだ","",36.272988,139.281303
10,"群馬県",21910,"千平","せんだいら","",36.230373,138.798901
10,"群馬県",21911,"膳","ぜん","",36.416944,139.222023
10,"群馬県",21912,"沢入","そうり","",36.580596,139.396363
10,"群馬県",21913,"高崎","たかさき","",36.322034,139.012657
10,"群馬県",29379,"高崎商科大学前","たかさきしょうかだいがくまえ","",36.284538,139.029324
10,"群馬県",29494,"高崎問屋町","たかさきとんやまち","",36.346086,139.017100
10,"群馬県",21914,"多々良","たたら","",36.273408,139.500535
10,"群馬県",21915,"館林","たてばやし","",36.246300,139.527978
10,"群馬県",21916,"中央前橋","ちゅうおうまえばし","",36.390860,139.075315
10,"群馬県",21917,"津久田","つくだ","",36.561009,139.042726
10,"群馬県",21918,"天王宿","てんのうじゅく","",36.415085,139.308184
10,"群馬県",21919,"土合","どあい","",36.831367,138.967109
10,"群馬県",21920,"中野","なかの","群馬県",36.524156,139.317149
10,"群馬県",21921,"中之条","なかのじょう","",36.585558,138.850880
10,"群馬県",21922,"長野原草津口","ながのはらくさつぐち","",36.546531,138.649871
10,"群馬県",21923,"成島","なるしま","群馬県",36.249134,139.505841
10,"群馬県",21924,"南蛇井","なんじゃい","",36.238206,138.813844
10,"群馬県",21926,"新里","にいさと","群馬県",36.418472,139.236995
10,"群馬県",21927,"西桐生","にしきりゅう","",36.414113,139.333015
10,"群馬県",21928,"西小泉","にしこいずみ","",36.258241,139.408377
10,"群馬県",21929,"西富岡","にしとみおか","",36.260121,138.882810
10,"群馬県",21930,"西松井田","にしまついだ","",36.316225,138.786370
10,"群馬県",21931,"西山名","にしやまな","",36.271011,139.032380
10,"群馬県",21932,"西吉井","にしよしい","",36.255707,138.965802
10,"群馬県",21925,"新川","にっかわ","群馬県",36.418139,139.257910
10,"群馬県",21933,"韮川","にらがわ","",36.307903,139.401708
10,"群馬県",21934,"沼田","ぬまた","",36.642528,139.035751
10,"群馬県",21935,"根小屋","ねごや","",36.291425,139.018769
10,"群馬県",21936,"花輪","はなわ","",36.520795,139.307873
10,"群馬県",21937,"羽根尾","はねお","",36.550169,138.605485
10,"群馬県",21938,"東小泉","ひがしこいずみ","",36.259436,139.429070
10,"群馬県",21939,"東富岡","ひがしとみおか","",36.260844,138.901863
10,"群馬県",21940,"東新川","ひがしにっかわ","群馬県",36.422028,139.267631
10,"群馬県",21941,"樋越","ひごし","",36.415471,139.173250
10,"群馬県",21942,"袋倉","ふくろぐら","",36.544113,138.578876
10,"群馬県",21943,"富士山下","ふじやました","",36.413974,139.315822
10,"群馬県",21944,"細谷","ほそや","群馬県",36.282516,139.348520
10,"群馬県",21945,"本中野","ほんなかの","",36.258520,139.469761
10,"群馬県",21946,"前橋","まえばし","",36.383195,139.073205
10,"群馬県",29259,"前橋大島","まえばしおおしま","",36.370530,139.109674
10,"群馬県",21947,"松井田","まついだ","",36.309254,138.797675
10,"群馬県",21948,"馬庭","まにわ","",36.261401,139.009604
10,"群馬県",21949,"丸山下","まるやました","",36.416834,139.321321
10,"群馬県",21950,"万座・鹿沢口","まんざかざわぐち","",36.532059,138.551240
10,"群馬県",21951,"水沼","みずぬま","",36.500019,139.277460
10,"群馬県",21952,"三俣","みつまた","",36.393750,139.088953
10,"群馬県",21953,"水上","みなかみ","",36.778623,138.968806
10,"群馬県",21954,"南高崎","みなみたかさき","",36.312340,139.012268
10,"群馬県",21955,"本宿","もとじゅく","群馬県",36.481548,139.259073
10,"群馬県",21956,"茂林寺前","もりんじまえ","",36.225526,139.527118
10,"群馬県",21957,"八木原","やぎはら","",36.463602,139.019094
10,"群馬県",21958,"矢倉","やぐら","",36.552672,138.784137
10,"群馬県",21959,"藪塚","やぶづか","",36.358980,139.315269
10,"群馬県",21960,"山名","やまな","",36.277538,139.038129
10,"群馬県",21961,"湯檜曽","ゆびそ","",36.802704,138.986498
10,"群馬県",21962,"横川","よこかわ","群馬県",36.335917,138.737873
10,"群馬県",21963,"吉井","よしい","群馬県",36.256124,138.984440
10,"群馬県",21964,"竜舞","りゅうまい","",36.279184,139.408931
10,"群馬県",21965,"渡瀬","わたらせ","群馬県",36.261744,139.536922